{
    "tickets": [
      {
        "Name": "John Doe",
        "Location": "New York",
        "Phone_Number": "+1 123-456-7890",
        "Status": "Open",
        "Priority": "High",
        "Ticket_Number": "TCKT001"
      },
      {
        "Name": "Jane Smith",
        "Location": "Los Angeles",
        "Phone_Number": "+1 987-654-3210",
        "Status": "In Progress",
        "Priority": "Medium",
        "Ticket_Number": "TCKT002"
      },
      {
        "Name": "Alice Johnson",
        "Location": "Chicago",
        "Phone_Number": "+1 555-123-4567",
        "Status": "Closed",
        "Priority": "Low",
        "Ticket_Number": "TCKT003"
      },
      {
        "Name": "Bob Brown",
        "Location": "Houston",
        "Phone_Number": "+1 222-333-4444",
        "Status": "Open",
        "Priority": "High",
        "Ticket_Number": "TCKT004"
      },
      {
        "Name": "David Lee",
        "Location": "Miami",
        "Phone_Number": "+1 777-888-9999",
        "Status": "In Progress",
        "Priority": "Medium",
        "Ticket_Number": "TCKT005"
      },
      {
        "Name": "Emily Johnson",
        "Location": "Seattle",
        "Phone_Number": "+1 111-222-3333",
        "Status": "Open",
        "Priority": "High",
        "Ticket_Number": "TCKT006"
      },
      {
        "Name": "Michael Wang",
        "Location": "San Francisco",
        "Phone_Number": "+1 333-444-5555",
        "Status": "Closed",
        "Priority": "Low",
        "Ticket_Number": "TCKT007"
      },
      {
        "Name": "Sophia Kim",
        "Location": "Boston",
        "Phone_Number": "+1 888-777-6666",
        "Status": "In Progress",
        "Priority": "Medium",
        "Ticket_Number": "TCKT008"
      },
      {
        "Name": "James Rodriguez",
        "Location": "Dallas",
        "Phone_Number": "+1 999-888-7777",
        "Status": "Open",
        "Priority": "High",
        "Ticket_Number": "TCKT009"
      },
      {
        "Name": "Olivia Martinez",
        "Location": "Atlanta",
        "Phone_Number": "+1 666-555-4444",
        "Status": "Closed",
        "Priority": "Low",
        "Ticket_Number": "TCKT010"
      },
      {
        "Name": "William Nguyen",
        "Location": "Philadelphia",
        "Phone_Number": "+1 222-333-4444",
        "Status": "In Progress",
        "Priority": "Medium",
        "Ticket_Number": "TCKT011"
      },
      {
        "Name": "Ava Hernandez",
        "Location": "Phoenix",
        "Phone_Number": "+1 777-888-9999",
        "Status": "Open",
        "Priority": "High",
        "Ticket_Number": "TCKT012"
      },
      {
        "Name": "Alexander Rivera",
        "Location": "Denver",
        "Phone_Number": "+1 111-222-3333",
        "Status": "Closed",
        "Priority": "Low",
        "Ticket_Number": "TCKT013"
      },
      {
        "Name": "Mia Chavez",
        "Location": "Washington D.C.",
        "Phone_Number": "+1 333-444-5555",
        "Status": "In Progress",
        "Priority": "Medium",
        "Ticket_Number": "TCKT014"
      },
      {
        "Name": "Ethan Kim",
        "Location": "Las Vegas",
        "Phone_Number": "+1 888-777-6666",
        "Status": "Open",
        "Priority": "High",
        "Ticket_Number": "TCKT015"
      },
      {
        "Name": "Sofia Nguyen",
        "Location": "Austin",
        "Phone_Number": "+1 999-888-7777",
        "Status": "Closed",
        "Priority": "Low",
        "Ticket_Number": "TCKT016"
      },
      {
        "Name": "Alexander Lee",
        "Location": "San Diego",
        "Phone_Number": "+1 666-555-4444",
        "Status": "In Progress",
        "Priority": "Medium",
        "Ticket_Number": "TCKT017"
      },
      {
        "Name": "Amelia Patel",
        "Location": "San Antonio",
        "Phone_Number": "+1 222-333-4444",
        "Status": "Open",
        "Priority": "High",
        "Ticket_Number": "TCKT018"
      },
      {
        "Name": "Elijah Smith",
        "Location": "Orlando",
        "Phone_Number": "+1 777-888-9999",
        "Status": "Closed",
        "Priority": "Low",
        "Ticket_Number": "TCKT019"
      },
      {
        "Name": "Mia Miller",
        "Location": "Minneapolis",
        "Phone_Number": "+1 111-222-3333",
        "Status": "In Progress",
        "Priority": "Medium",
        "Ticket_Number": "TCKT020"
      },
      {
        "Name": "Logan Davis",
        "Location": "Detroit",
        "Phone_Number": "+1 333-444-5555",
        "Status": "Open",
        "Priority": "High",
        "Ticket_Number": "TCKT021"
      },
      {
        "Name": "Harper Wilson",
        "Location": "Salt Lake City",
        "Phone_Number": "+1 888-777-6666",
        "Status": "Closed",
        "Priority": "Low",
        "Ticket_Number": "TCKT022"
      },
      {
        "Name": "Evelyn Garcia",
        "Location": "Charlotte",
        "Phone_Number": "+1 999-888-7777",
        "Status": "In Progress",
        "Priority": "Medium",
        "Ticket_Number": "TCKT023"
      },
      {
        "Name": "Aiden Martinez",
        "Location": "Tampa",
        "Phone_Number": "+1 666-555-4444",
        "Status": "Open",
        "Priority": "High",
        "Ticket_Number": "TCKT024"
      },
      {
        "Name": "Avery Kim",
        "Location": "Portland",
        "Phone_Number": "+1 222-333-4444",
        "Status": "Closed",
        "Priority": "Low",
        "Ticket_Number": "TCKT025"
      },
      {
        "Name": "Scarlett Hernandez",
        "Location": "Indianapolis",
        "Phone_Number": "+1 777-888-9999",
        "Status": "In Progress",
        "Priority": "Medium",
        "Ticket_Number": "TCKT026"
      },
      {
        "Name": "Carter Nguyen",
        "Location": "Columbus",
        "Phone_Number": "+1 111-222-3333",
        "Status": "Open",
        "Priority": "High",
        "Ticket_Number": "TCKT027"
      },
      {
        "Name": "Liam Rivera",
        "Location": "Memphis",
        "Phone_Number": "+1 333-444-5555",
        "Status": "Closed",
        "Priority": "Low",
        "Ticket_Number": "TCKT028"
      },
      {
        "Name": "Zoey Kim",
        "Location": "Nashville",
        "Phone_Number": "+1 888-777-6666",
        "Status": "In Progress",
        "Priority": "Medium",
        "Ticket_Number": "TCKT029"
      },
      {
        "Name": "Mason Nguyen",
        "Location": "Milwaukee",
        "Phone_Number": "+1 999-888-7777",
        "Status": "Open",
        "Priority": "High",
        "Ticket_Number": "TCKT030"
      },
      {
        "Name": "Nora Lee",
        "Location": "Kansas City",
        "Phone_Number": "+1 666-555-4444",
        "Status": "Closed",
        "Priority": "Low",
        "Ticket_Number": "TCKT031"
      },
      {
        "Name": "Isabella Patel",
        "Location": "Raleigh",
        "Phone_Number": "+1 222-333-4444",
        "Status": "In Progress",
        "Priority": "Medium",
        "Ticket_Number": "TCKT032"
      },
      {
        "Name": "Jackson Smith",
        "Location": "Oklahoma City",
        "Phone_Number": "+1 777-888-9999",
        "Status": "Open",
        "Priority": "High",
        "Ticket_Number": "TCKT033"
      },
      {
        "Name": "Riley Wilson",
        "Location": "Louisville",
        "Phone_Number": "+1 111-222-3333",
        "Status": "Closed",
        "Priority": "Low",
        "Ticket_Number": "TCKT034"
      },
      {
        "Name": "Madison Garcia",
        "Location": "Albuquerque",
        "Phone_Number": "+1 333-444-5555",
        "Status": "In Progress",
        "Priority": "Medium",
        "Ticket_Number": "TCKT035"
      },
      {
        "Name": "Luke Martinez",
        "Location": "Fresno",
        "Phone_Number": "+1 888-777-6666",
        "Status": "Open",
        "Priority": "High",
        "Ticket_Number": "TCKT036"
      },
      {
        "Name": "Lily Kim",
        "Location": "Tucson",
        "Phone_Number": "+1 999-888-7777",
        "Status": "Closed",
        "Priority": "Low",
        "Ticket_Number": "TCKT037"
      },
      {
        "Name": "Daniel Hernandez",
        "Location": "Sacramento",
        "Phone_Number": "+1 666-555-4444",
        "Status": "In Progress",
        "Priority": "Medium",
        "Ticket_Number": "TCKT038"
      },
      {
        "Name": "Henry Nguyen",
        "Location": "Long Beach",
        "Phone_Number": "+1 222-333-4444",
        "Status": "Open",
        "Priority": "High",
        "Ticket_Number": "TCKT039"
      },
      {
        "Name": "Charlotte Lee",
        "Location": "Kansas City",
        "Phone_Number": "+1 777-888-9999",
        "Status": "Closed",
        "Priority": "Low",
        "Ticket_Number": "TCKT040"
      },
      {
        "Name": "Sebastian Patel",
        "Location": "Mesa",
        "Phone_Number": "+1 111-222-3333",
        "Status": "In Progress",
        "Priority": "Medium",
        "Ticket_Number": "TCKT041"
      },
      {
        "Name": "Grace Smith",
        "Location": "Virginia Beach",
        "Phone_Number": "+1 333-444-5555",
        "Status": "Open",
        "Priority": "High",
        "Ticket_Number": "TCKT042"
      },
      {
        "Name": "Wyatt Wilson",
        "Location": "Atlanta",
        "Phone_Number": "+1 888-777-6666",
        "Status": "Closed",
        "Priority": "Low",
        "Ticket_Number": "TCKT043"
      },
      {
        "Name": "Elena Garcia",
        "Location": "Colorado Springs",
        "Phone_Number": "+1 999-888-7777",
        "Status": "In Progress",
        "Priority": "Medium",
        "Ticket_Number": "TCKT044"
      },
      {
        "Name": "Jack Martinez",
        "Location": "Raleigh",
        "Phone_Number": "+1 666-555-4444",
        "Status": "Open",
        "Priority": "High",
        "Ticket_Number": "TCKT045"
      },
      {
        "Name": "Violet Kim",
        "Location": "Omaha",
        "Phone_Number": "+1 222-333-4444",
        "Status": "Closed",
        "Priority": "Low",
        "Ticket_Number": "TCKT046"
      },
      {
        "Name": "Julian Hernandez",
        "Location": "Miami",
        "Phone_Number": "+1 777-888-9999",
        "Status": "In Progress",
        "Priority": "Medium",
        "Ticket_Number": "TCKT047"
      },
      {
        "Name": "Leah Nguyen",
        "Location": "Tulsa",
        "Phone_Number": "+1 111-222-3333",
        "Status": "Open",
        "Priority": "High",
        "Ticket_Number": "TCKT048"
      },
      {
        "Name": "Nathan Lee",
        "Location": "Honolulu",
        "Phone_Number": "+1 333-444-5555",
        "Status": "Closed",
        "Priority": "Low",
        "Ticket_Number": "TCKT049"
      },
      {
        "Name": "Audrey Patel",
        "Location": "Buffalo",
        "Phone_Number": "+1 888-777-6666",
        "Status": "In Progress",
        "Priority": "Medium",
        "Ticket_Number": "TCKT050"
      }
    ]
  }
  